{"type":"FeatureCollection","features":[{"type":"Feature","geometry":{"type":"Point","coordinates":[-3.187885,55.944709]},"properties":{"location":"hurt.green.filer","marker-color":"#80ff00","rgb-string":"#80ff00","marker-symbol":"lighthouse"}},{"type":"Feature","geometry":{"type":"Point","coordinates":[-3.188271,55.944063]},"properties":{"location":"rush.crown.link","marker-color":"#00ff00","rgb-string":"#00ff00","marker-symbol":"lighthouse"}},{"type":"Feature","geometry":{"type":"Point","coordinates":[-3.187982,55.943497]},"properties":{"location":"scare.cubs.resort","marker-color":"#40ff00","rgb-string":"#40ff00","marker-symbol":"lighthouse"}},{"type":"Feature","geometry":{"type":"Point","coordinates":[-3.187355,55.943604]},"properties":{"location":"shut.stands.media","marker-color":"#80ff00","rgb-string":"#80ff00","marker-symbol":"lighthouse"}},{"type":"Feature","geometry":{"type":"Point","coordinates":[-3.187211,55.943335]},"properties":{"location":"scale.chair.kinds","marker-color":"#80ff00","rgb-string":"#80ff00","marker-symbol":"lighthouse"}},{"type":"Feature","geometry":{"type":"Point","coordinates":[-3.187693,55.942769]},"properties":{"location":"panic.squad.danger","marker-color":"#ff8000","rgb-string":"#ff8000","marker-symbol":"danger"}},{"type":"Feature","geometry":{"type":"Point","coordinates":[-3.188945,55.943928]},"properties":{"location":"noted.friday.jams","marker-color":"#00ff00","rgb-string":"#00ff00","marker-symbol":"lighthouse"}},{"type":"Feature","geometry":{"type":"Point","coordinates":[-3.189138,55.944197]},"properties":{"location":"spoon.invest.every","marker-color":"#40ff00","rgb-string":"#40ff00","marker-symbol":"lighthouse"}},{"type":"Feature","geometry":{"type":"Point","coordinates":[-3.189619,55.94382]},"properties":{"location":"burn.spot.across","marker-color":"#40ff00","rgb-string":"#40ff00","marker-symbol":"lighthouse"}},{"type":"Feature","geometry":{"type":"Point","coordinates":[-3.189812,55.94409]},"properties":{"location":"cliff.asleep.wedge","marker-color":"#40ff00","rgb-string":"#40ff00","marker-symbol":"lighthouse"}},{"type":"Feature","geometry":{"type":"Point","coordinates":[-3.190294,55.943712]},"properties":{"location":"sculpture.shot.melon","marker-color":"#40ff00","rgb-string":"#40ff00","marker-symbol":"lighthouse"}},{"type":"Feature","geometry":{"type":"Point","coordinates":[-3.190197,55.943443]},"properties":{"location":"arts.dish.scarcely","marker-color":"#40ff00","rgb-string":"#40ff00","marker-symbol":"lighthouse"}},{"type":"Feature","geometry":{"type":"Point","coordinates":[-3.190727,55.943092]},"properties":{"location":"relate.chill.vest","marker-color":"#40ff00","rgb-string":"#40ff00","marker-symbol":"lighthouse"}},{"type":"Feature","geometry":{"type":"Point","coordinates":[-3.191161,55.943065]},"properties":{"location":"else.urban.museum","marker-color":"#00ff00","rgb-string":"#00ff00","marker-symbol":"lighthouse"}},{"type":"Feature","geometry":{"type":"Point","coordinates":[-3.191161,55.943362]},"properties":{"location":"meal.feed.large","marker-color":"#40ff00","rgb-string":"#40ff00","marker-symbol":"lighthouse"}},{"type":"Feature","geometry":{"type":"Point","coordinates":[-3.188704,55.945168]},"properties":{"location":"rooms.lamp.teach","marker-color":"#ff8000","rgb-string":"#ff8000","marker-symbol":"danger"}},{"type":"Feature","geometry":{"type":"Point","coordinates":[-3.188801,55.945437]},"properties":{"location":"shady.soft.phones","marker-color":"#ff4000","rgb-string":"#ff4000","marker-symbol":"danger"}},{"type":"Feature","geometry":{"type":"Point","coordinates":[-3.188319,55.945518]},"properties":{"location":"skills.less.herb","marker-color":"#ff4000","rgb-string":"#ff4000","marker-symbol":"danger"}},{"type":"Feature","geometry":{"type":"Point","coordinates":[-3.187404,55.945949]},"properties":{"location":"slips.mass.baking","marker-color":"#ffc000","rgb-string":"#ffc000","marker-symbol":"danger"}},{"type":"Feature","geometry":{"type":"Point","coordinates":[-3.186922,55.945437]},"properties":{"location":"spent.spoon.bolt","marker-color":"#ffc000","rgb-string":"#ffc000","marker-symbol":"danger"}},{"type":"Feature","geometry":{"type":"Point","coordinates":[-3.186729,55.945653]},"properties":{"location":"hidden.handle.softly","marker-color":"#ff0000","rgb-string":"#ff0000","marker-symbol":"danger"}},{"type":"Feature","geometry":{"type":"Point","coordinates":[-3.186392,55.944656]},"properties":{"location":"rated.fired.crowds","marker-color":"#ffc000","rgb-string":"#ffc000","marker-symbol":"danger"}},{"type":"Feature","geometry":{"type":"Point","coordinates":[-3.186777,55.944575]},"properties":{"location":"artist.gets.react","marker-color":"#c0ff00","rgb-string":"#c0ff00","marker-symbol":"lighthouse"}},{"type":"Feature","geometry":{"type":"Point","coordinates":[-3.185525,55.943982]},"properties":{"location":"manliness.poem.cliff","marker-color":"#ffc000","rgb-string":"#ffc000","marker-symbol":"danger"}},{"type":"Feature","geometry":{"type":"Point","coordinates":[-3.185814,55.943551]},"properties":{"location":"record.sofa.sock","marker-color":"#ff4000","rgb-string":"#ff4000","marker-symbol":"danger"}},{"type":"Feature","geometry":{"type":"Point","coordinates":[-3.185621,55.943065]},"properties":{"location":"toned.deflection.bland","marker-color":"#ff4000","rgb-string":"#ff4000","marker-symbol":"danger"}},{"type":"Feature","geometry":{"type":"Point","coordinates":[-3.185573,55.942877]},"properties":{"location":"dent.shins.cycle","marker-color":"#000000","rgb-string":"#000000","marker-symbol":"cross"}},{"type":"Feature","geometry":{"type":"Point","coordinates":[-3.184803,55.943173]},"properties":{"location":"brings.remedy.latter","marker-color":"#ffc000","rgb-string":"#ffc000","marker-symbol":"danger"}},{"type":"Feature","geometry":{"type":"Point","coordinates":[-3.18514,55.943685]},"properties":{"location":"hello.love.keys","marker-color":"#ffc000","rgb-string":"#ffc000","marker-symbol":"danger"}},{"type":"Feature","geometry":{"type":"Point","coordinates":[-3.185236,55.944575]},"properties":{"location":"acid.chair.butter","marker-color":"#ffc000","rgb-string":"#ffc000","marker-symbol":"danger"}},{"type":"Feature","geometry":{"type":"Point","coordinates":[-3.184465,55.944952]},"properties":{"location":"sports.topic.clocks","marker-color":"#000000","rgb-string":"#000000","marker-symbol":"cross"}},{"type":"Feature","geometry":{"type":"Point","coordinates":[-3.185043,55.945868]},"properties":{"location":"rider.aura.bulb","marker-color":"#ffc000","rgb-string":"#ffc000","marker-symbol":"danger"}},{"type":"Feature","geometry":{"type":"Point","coordinates":[-3.185332,55.946138]},"properties":{"location":"prime.rent.silk","marker-color":"#ff8000","rgb-string":"#ff8000","marker-symbol":"danger"}},{"type":"Feature","geometry":{"type":"LineString","coordinates":[[-3.1878,55.9444],[-3.1879026,55.9446819],[-3.1880526,55.9444221],[-3.1882026,55.9441623],[-3.1881,55.9438804],[-3.1879974,55.9435985],[-3.1876974,55.9435985],[-3.1873974,55.9435985],[-3.1872046,55.9433687],[-3.1873974,55.9431389],[-3.1875902,55.942909],[-3.18782,55.9431019],[-3.1880499,55.9432947],[-3.1882797,55.9434875],[-3.1885395,55.9436375],[-3.1887693,55.9438304],[-3.1890291,55.9439804],[-3.1891791,55.9442402],[-3.1894089,55.9440474],[-3.1896017,55.9438175],[-3.1897946,55.9440474],[-3.1900544,55.9438974],[-3.1902842,55.9437045],[-3.1901816,55.9434226],[-3.1904414,55.9432726],[-3.1907012,55.9431226],[-3.1909967,55.9430705],[-3.1911467,55.9433303],[-3.1909168,55.9435232],[-3.190687,55.943716],[-3.1904572,55.9439088],[-3.1902274,55.9441017],[-3.1899676,55.9442517],[-3.1897378,55.9444445],[-3.189478,55.9445945],[-3.1892482,55.9447873],[-3.1889884,55.9449373],[-3.1887585,55.9451302],[-3.1888106,55.9454256],[-3.1885152,55.9454777],[-3.1882198,55.9455298],[-3.1879599,55.9456798],[-3.1877001,55.9458298],[-3.1874182,55.9459324],[-3.1871884,55.9457396],[-3.1869956,55.9455098],[-3.1867358,55.9456598],[-3.1866332,55.9453779],[-3.1865306,55.9450959],[-3.186428,55.944814],[-3.1866878,55.944664],[-3.1863923,55.9446119],[-3.1861625,55.9444191],[-3.1859027,55.9442691],[-3.1856729,55.9440763],[-3.1857755,55.9437944],[-3.1858276,55.9434989],[-3.1856776,55.9432391],[-3.185575,55.9429572],[-3.1852931,55.9430598],[-3.1849976,55.9431119],[-3.1847157,55.9432145],[-3.1849086,55.9434443],[-3.1851014,55.9436741],[-3.1851535,55.9439696],[-3.1852056,55.944265],[-3.1852577,55.9445605],[-3.1849979,55.9447105],[-3.184716,55.9448131],[-3.1844562,55.9449631],[-3.1846062,55.9452229],[-3.1847562,55.9454827],[-3.184949,55.9457125],[-3.1851418,55.9459423],[-3.1853347,55.9461721],[-3.1855645,55.9459793],[-3.1857943,55.9457865],[-3.1860541,55.9456365],[-3.1862839,55.9454436],[-3.1865437,55.9452936],[-3.1868392,55.9452415],[-3.1865392,55.9452415],[-3.1868346,55.9452936],[-3.1866846,55.9450338],[-3.1868774,55.9452636],[-3.1865774,55.9452636],[-3.1866295,55.9449682],[-3.1868224,55.945198],[-3.1865224,55.945198],[-3.1868178,55.9452501],[-3.1865178,55.9452501],[-3.1868133,55.945198],[-3.1865133,55.945198],[-3.1865653,55.9449026],[-3.1865653,55.9446026],[-3.1868608,55.9445505],[-3.1871562,55.9444984],[-3.1874517,55.9444463]]},"properties":{}}]}